City_ID,City,Country,Max Temp,Current Description,Lat,Lng,Hotel Name
8,port hardy,CA,60.98,light rain,50.6996,-127.4199,Airport Inn
39,noumea,NC,64.38,scattered clouds,-22.2763,166.4572,Hôtel Le Lagon
50,pisco,PE,64.45,clear sky,-13.7,-76.2167,Hotel San Isidro Oficial
56,port alfred,ZA,67.35,clear sky,-33.5906,26.891,The Halyards Hotel
73,inhambane,MZ,68.13,scattered clouds,-23.865,35.3833,Oceano
78,cidreira,BR,61.77,clear sky,-30.1811,-50.2056,Hotel Castelo
92,saint-philippe,RE,69.35,light rain,-21.3585,55.7679,"Chambres d'hôte ""La Trinité"""
99,port elizabeth,ZA,61.11,overcast clouds,-33.918,25.5701,39 On Nile Guest House
102,torbay,CA,66.58,few clouds,47.6666,-52.7314,Gallows Cove
104,dawlatabad,AF,65.86,clear sky,36.4141,64.9053,WASIM ASGAR KHAN
108,novopskov,UA,68.68,overcast clouds,49.5464,39.0899,"Sanatorno-Ozdorovchyy Kompleks ""Perlyna"""
130,castro,BR,61.7,overcast clouds,-24.7911,-50.0119,CHACARA BAILLY
143,lima,PE,61.05,overcast clouds,-12.0432,-77.0282,Gran Hotel Bolivar Lima
153,lichuan,CN,62.85,light rain,30.3,108.85,Yicheng Hotel
159,hearst,CA,61.05,scattered clouds,49.6835,-83.6665,Companion
166,shakawe,BW,65.37,clear sky,-18.3667,21.85,Ditlhapi Guest House
168,oxford,GB,62.49,clear sky,51.7522,-1.256,Malmaison Oxford
170,lagoa,PT,69.12,overcast clouds,39.05,-27.9833,Casa Das Faias
173,bayir,TR,63.12,clear sky,37.2687,28.2167,Hotel Babadag
182,northam,GB,60.66,scattered clouds,51.0333,-4.2167,Durrant House Hotel
189,sorgun,TR,60.37,broken clouds,39.8101,35.186,SORGUN BIG THERMAL TURIZM HOTEL COMPANY A.Ş.
191,lubango,AO,65.53,clear sky,-14.9172,13.4925,Hotel Serra da Chela
194,losser,NL,64.78,overcast clouds,52.2608,7.0042,Hotel Marktzicht
196,rocky mountain house,CA,60.91,overcast clouds,52.3668,-114.9188,Walking Eagle Inn & Lodge
219,anchorage,US,60.31,clear sky,61.2181,-149.9003,Hotel Captain Cook
229,mount isa,AU,62.37,few clouds,-20.7333,139.5,ibis Styles Mt Isa Verona
239,kulu,TR,61.93,clear sky,39.0951,33.0799,Kapadokya Motel
243,marawi,PH,66.65,overcast clouds,7.9986,124.2928,Derogongan Residence
247,bridlington,GB,61.9,overcast clouds,54.0831,-0.1919,Expanse Bridlington Seafront Hotel
248,richards bay,ZA,65.89,clear sky,-28.783,32.0377,BON Hotel Waterfront Richards Bay
252,khani,GE,60.37,overcast clouds,41.9563,42.9566,კურორტი ზეკარი/Resort Zekari
253,liverpool,GB,61.68,clear sky,53.4106,-2.9779,Premier Inn Liverpool City Centre (Moorfields) hotel
255,namibe,AO,68.83,overcast clouds,-15.1961,12.1522,Hotel Chik Chik Namibe
294,vila franca do campo,PT,68.41,broken clouds,37.7167,-25.4333,Pestana Bahia Praia
297,pinawa,CA,62.02,overcast clouds,50.1489,-95.8811,Pinawa Motel
298,bongaree,AU,62.22,clear sky,-27.0797,153.1586,The Gums Anchorage
301,hami,CN,68.54,scattered clouds,42.8,93.45,Laoyutang Resort
302,jaguarao,BR,60.37,overcast clouds,-32.5661,-53.3758,Hotel Rio's
303,gloucester,GB,61.5,broken clouds,51.8657,-2.2431,Edward Hotel
307,terrace,CA,60.71,light rain,54.5163,-128.6035,Northern Motor Inn
308,reading,GB,63.25,scattered clouds,51.4562,-0.9711,The Roseate Reading
328,kaoma,ZM,65.17,scattered clouds,-14.7833,24.8,KAOMA AIRPORT
334,manakara,MG,66.27,moderate rain,-22.1333,48.0167,La Residence Manakara
338,kangavar,IR,70.0,clear sky,34.5043,47.9653,محمد جوادرضایی
351,tineo,ES,63.25,overcast clouds,43.3376,-6.4145,Palacio de Meras Hotel y Restaurante
354,havre-saint-pierre,CA,61.16,few clouds,50.2334,-63.5986,Auberge Niapiskau
355,isangel,VU,69.91,clear sky,-19.55,169.2667,Tanna Lodge
363,ballina,AU,62.78,clear sky,-28.8667,153.5667,Ramada Hotel & Suites by Wyndham Ballina Byron
371,saint-pierre,RE,69.44,clear sky,-21.3393,55.4781,Lindsey Hôtel
386,margate,GB,63.7,overcast clouds,51.3813,1.3862,Premier Inn Margate hotel
395,flinders,AU,64.8,clear sky,-34.5833,150.8552,Shellharbour Resort & Conference Centre
402,ituporanga,BR,64.67,clear sky,-27.4144,-49.6025,Hotel Jacaré
408,hervey bay,AU,63.03,few clouds,-25.2986,152.8535,Shelly Bay Resort
413,wolgast,DE,62.98,overcast clouds,54.05,13.7667,Zum Alten Schweden
426,jiayuguan,CN,63.73,overcast clouds,39.8167,98.3,Jiugang Hotel - Jiayuguan
441,zhanaozen,KZ,69.31,clear sky,43.3,52.8,K.korabay 28A
442,faya,SA,68.52,scattered clouds,18.3851,42.4509,املاك خالد الشعشوع
447,registro,BR,67.91,overcast clouds,-24.4875,-47.8436,Régis Hotel
455,vishnyakovskiye dachi,RU,61.32,broken clouds,55.7614,38.1344,Hostel Owls nest kupavna
456,akcakoca,TR,62.53,clear sky,41.0866,31.1162,Turkuaz Beach Otel
463,neuquen,AR,64.29,clear sky,-38.9516,-68.0591,Hotel del Comahue
469,chernyanka,RU,65.86,overcast clouds,50.9409,37.8069,"Tsentral'naya, Gostinitsa"
480,port hedland,AU,68.05,clear sky,-20.3167,118.5667,The Esplanade Hotel
483,rwamagana,RW,65.64,overcast clouds,-1.9487,30.4347,Avega East Hostel
486,prokuplje,RS,61.88,overcast clouds,43.2342,21.5881,Дом ученика средњих школа Прокупље
496,sept-iles,CA,68.52,scattered clouds,50.2001,-66.3821,Comfort Inn
498,chimbote,PE,64.85,overcast clouds,-9.0853,-78.5783,Hotel Viera Chimbote
499,virovitica,HR,66.02,clear sky,45.8319,17.3839,Rooms Virovitica
504,bunia,CD,63.57,clear sky,1.5667,30.25,Gold Star International Hotel
516,saint-gaudens,FR,64.13,overcast clouds,43.0833,0.6667,L'Ardiégeoise
523,gualeguay,AR,64.56,few clouds,-33.1416,-59.3097,Cabañas Nuestro Refugio
526,sambava,MG,67.06,overcast clouds,-14.2667,50.1667,Melrose
539,erenhot,CN,66.54,broken clouds,43.6475,111.9767,Erenhot Rurouni Youth Hostel
542,fort saint james,CA,66.0,scattered clouds,54.4333,-124.25,The View Hotel
554,mareeba,AU,66.92,overcast clouds,-17.0,145.4333,Trinity Plains Tourist Park
559,changji,CN,61.59,clear sky,44.0167,87.3167,Lvye Holiday Resort
564,aras,ES,69.71,clear sky,42.5617,-2.356,Jardines de Viana Spa
567,vangaindrano,MG,66.11,light rain,-23.35,47.6,Hotel Fanilo
571,poum,NC,69.94,clear sky,-20.2333,164.0167,Gîte kajeon
574,sydney,AU,67.35,clear sky,-33.8679,151.2073,The Grace Sydney
581,urkut,HU,67.33,clear sky,47.085,17.6439,Max-Clean Kft.
588,banepa,NP,64.83,broken clouds,27.6298,85.5214,Dhulikhel Lodge Resort
589,mercedes,AR,66.85,broken clouds,-34.6515,-59.4307,Posada del Inti Centro
592,dongsheng,CN,65.82,clear sky,39.8161,109.9776,Crowne Plaza Ordos
605,phrae,TH,69.39,overcast clouds,18.0833,100.0,Gingerbread Cottage Resort & Spa
618,hualmay,PE,65.73,overcast clouds,-11.0964,-77.6139,Hotel Villa Kitzia Huacho
622,zhangye,CN,68.2,broken clouds,38.9342,100.4517,Zhangye Lvzhou Holiday Inn
624,bereda,ES,62.35,overcast clouds,43.2686,-7.5406,Pazo de Verdes
627,sioux lookout,CA,61.18,broken clouds,50.1001,-91.917,Knobby's Fly-In Camps
632,trujillo,PE,60.76,mist,-8.116,-79.03,Casa Andina Standard Trujillo Plaza
635,bone,DE,63.63,broken clouds,51.9669,12.1396,Sporthotel Wallwitz
638,arkhipo-osipovka,RU,64.53,scattered clouds,44.37,38.52,Zolotoy Kashtan Guest House
641,shillong,IN,63.63,light rain,25.5689,91.8831,Cafe Shillong Bed and Breakfast
642,kamaishi,JP,67.14,clear sky,39.2667,141.8833,Hotel Route Inn Kamaishi
648,moose factory,CA,66.2,few clouds,51.2585,-80.6094,Moosonee Lilypad
657,kalnciems,LV,60.85,few clouds,56.8011,23.6097,Woodvilla
